     3.02           OBSERVATION DATA    M: Mixed            RINEX VERSION / TYPE
X5 RINEX converter                      20240710 123800 UTC PGM / RUN BY / DATE 
log: line22_fromhostivartopohorelec.ubx                     COMMENT             
format: u-blox UBX                                          COMMENT             
format: u-blox UBX                                          COMMENT             
log: line22_fromhostivartopohorelec.ubx                     COMMENT             
                                                            MARKER NAME         
                                                            MARKER NUMBER       
                                                            MARKER TYPE         
                                                            OBSERVER / AGENCY   
                                                            REC # / TYPE / VERS 
                                                            ANT # / TYPE        
  3972414.0885  1028781.1989  4866834.5108                  APPROX POSITION XYZ 
        0.0000        0.0000        0.0000                  ANTENNA: DELTA H/E/N
G    6 C1C L1C D1C C2X L2X D2X                              SYS / # / OBS TYPES 
R    6 C1C L1C D1C C2C L2C D2C                              SYS / # / OBS TYPES 
E    6 C1X L1X D1X C7X L7X D7X                              SYS / # / OBS TYPES 
S    3 C1C L1C D1C                                          SYS / # / OBS TYPES 
C    6 C1I L1I D1I C7I L7I D7I                              SYS / # / OBS TYPES 
  2024    07    10    07    31   17.0020000     GPS         TIME OF FIRST OBS   
  2024    07    10    08    14   38.0040000     GPS         TIME OF LAST OBS    
G L1C                                                       SYS / PHASE SHIFT   
G L2X  0.00000                                              SYS / PHASE SHIFT   
R L1C                                                       SYS / PHASE SHIFT   
R L2C                                                       SYS / PHASE SHIFT   
E L1X  0.00000                                              SYS / PHASE SHIFT   
E L7X  0.00000                                              SYS / PHASE SHIFT   
S L1C                                                       SYS / PHASE SHIFT   
C L1I                                                       SYS / PHASE SHIFT   
C L7I                                                       SYS / PHASE SHIFT   
G L2S -0.25000  03 G15 G16 G17                              SYS / PHASE SHIFT
 11 R02 -4 R03  5 R04  6 R09 -2 R10 -7 R11  0 R16 -1 R17  4 GLONASS SLOT / FRQ #
    R18 -3 R19  3 R20  2                                    GLONASS SLOT / FRQ #
 C1C    0.000 C1P    0.000 C2C    0.000 C2P    0.000        GLONASS COD/PHS/BIS 
                                                            END OF HEADER       
> 2024 07 10 07 31 17.0020000  0 28                     
S36  39106143.064 8               9      -913.916  
G15  24464787.428 4 128563330.19335      -371.442                                                  
G16  21574200.495 1 113373190.16012     -2261.792                                                  
G23  21690312.272 1 113983359.80112       -77.891    21690309.473 2  88818189.97315       -60.796  
G27  21223323.898 1 111529318.79212       676.122    21223319.637 9               9       535.866  
G26  23435269.528 4 123153174.30635     -4214.588                                                  
C28  23571670.223 1 122743873.96114     -2926.234                                                  
C36  24979223.007 4 130073368.96338      -494.054                                                  
C41  25363307.216 1 132073394.95712      1831.475                                                  
C27  22166741.953 1 115428043.66612      -530.100                                                  
C33  24886881.124 1 129592515.45613      -650.856                                                  
R02  23090614.556 4 123215972.01317     -2440.625                                                  
R03  22262155.398 2 119171047.98812      1195.380    22262152.674 4               9       931.145  
R18  21317991.033 2 113796887.01412     -3364.526    21317990.341 2  88508687.65812     -2616.736  
R09  21124808.029 8 112805308.89614     -2532.068    21124809.892 4               9     -1968.720  
G01  23600247.214 2 124020146.19114     -4566.137                                                  
G10  22922619.631 1 120459177.04113      1923.725    22922618.465 8  93864293.94214      1499.245  
S23  39096995.842 1 205456100.91533      -919.560  
G07  25677416.957 4 134935729.24835      -425.879                                                  
G18  22906253.242 1 120373171.95813     -3546.325    22906248.174 1  93797250.68713     -2763.097  
C08  39357830.874 1 204946557.18913     -1983.002                                                  
C13  38608204.266 1 201043058.07112     -1692.492                                                  
E21  27622305.641 1 145156187.04414      1621.225                                                  
G08  23479297.156 4 123384545.65936      2207.856    23479300.267 9               9      1716.301  
E34  24833209.685 1 130499394.28112     -2492.492                                                  
E30  26053388.791 4 136911484.29715     -3566.885                                                  
E15  24318792.321 1 127796117.24913       135.679                                                  
E05  27198419.357 1 142928646.57914      1397.349                                                  
> 2024 07 10 07 31 18.0020000  0 28                     
S36  39106314.834 4 205505071.05037      -900.971  
G15  24464858.076 4 128563701.33227      -368.433                                                  
G16  21574631.206 1 113375453.981 2     -2265.717                                                  
G23  21690327.252 1 113983438.443 2       -79.147    21690324.428 2  88818251.224 5       -61.930  
G27  21223195.592 1 111528644.182 3       672.740    21223190.870 9               9       527.720  
G26  23436074.125 4 123157390.53724     -4217.874                                                  
C28  23572231.944 1 122746799.599 3     -2925.955                                                  
C36  24979319.689 4               9      -499.866                                                  
C41  25362955.643 1 132071563.875 2      1830.712                                                  
C27  22166844.161 1 115428575.122 2      -532.573                                                  
C33  24887006.228 1 129593166.483 4      -651.036                                                  
R02  23091072.829 4               9     -2440.241                                                  
R03  22261932.104 2 119169852.407 3      1196.037    22261929.985 9               9       929.054  
R18  21318621.111 2 113800251.569 2     -3364.099    21318620.504 2  88511304.485 3     -2616.541  
R09  21125281.690 8 112807843.329 3     -2537.588                                                  
G01  23601115.410 4 124024713.568 7     -4568.649                                                  
G10  22922253.780 1 120457254.834 3      1921.004    22922255.611 8  93862796.129 4      1497.243  
S23  39097170.939 1 205457021.82423      -921.867  
G07  25677500.256 8               9      -432.809                                                  
G18  22906927.789 1 120376717.641 3     -3545.506    22906923.049 1  93800013.533 3     -2762.558  
C08  39358211.470 2               9     -1981.399                                                  
C13  38608529.362 1 201044750.553 2     -1691.785                                                  
E21  27621997.114 1 145154567.849 3      1617.846                                                  
E34  24833683.681 1 130501886.774 1     -2491.994                                                  
E30  26054068.190 4 136915054.088 4     -3571.044                                                  
E15  24318767.409 1 127795983.137 3       132.525                                                  
E05  27198152.736 1 142927247.946 3      1398.725                                                  
G08                                                  23478880.888 9               9      1712.824  
